ID,MNAME,LAT,LONG,HOSPBD,GEOID,County_Name,State_Name
6380002,Rehabilitation Hospital Navicent Health,32.893099999999997,-83.680499999999995,58.00,13021012102,Bibb,Georgia
6380004,Peachford Behavioral Health System,33.928699999999999,-84.300600000000003,246.00,13089021218,DeKalb,Georgia
6380005,Southwell Medical,31.144400000000001,-83.424300000000002,155.00,13075960300,Cook,Georgia
6380006,St. Francis Hospital,32.505699999999997,-84.960099999999997,331.00,13215000900,Muscogee,Georgia
6380019,Northeast Georgia Medical Center,34.304200000000002,-83.8172,887.00,13139000800,Hall,Georgia
6380020,Bacon County Hospital and Health System,31.5396,-82.4589,113.00,13005970201,Bacon,Georgia
6380021,Children's Healthcare of Atlanta,33.830599999999997,-84.330799999999996,496.00,13089021603,DeKalb,Georgia
6380022,Piedmont Newnan Hospital,33.357300000000002,-84.755099999999999,146.00,13077170603,Coweta,Georgia
6380024,Piedmont Fayette Hospital,33.452800000000003,-84.508600000000001,221.00,13113140204,Fayette,Georgia
6380026,Regency Hospital of South Atlanta,33.680399999999999,-84.427000000000007,40.00,13121011000,Fulton,Georgia
6380027,Regency Hospital of Central Georgia,32.847700000000003,-83.615600000000001,60.00,13021013800,Bibb,Georgia
6380028,East Central Regional Hospital,33.398899999999998,-82.009200000000007,308.00,13245010511,Richmond,Georgia
6380029,Columbus Specialty Hospital,32.4801,-84.9846,33.00,13215011100,Muscogee,Georgia
6380030,Phoebe Sumter Medical Center,32.066699999999997,-84.255499999999998,54.00,13261950300,Sumter,Georgia
6380033,Select Specialty Hospital-Savannah,32.027999999999999,-81.100200000000001,40.00,13051003400,Chatham,Georgia
6380037,Emory Hillandale Hospital,33.705800000000004,-84.147999999999996,70.00,13089023310,DeKalb,Georgia
6380040,Piedmont Athens Regional Medical Center,33.961399999999998,-83.397999999999996,345.00,13059001800,Clarke,Georgia
6380042,Select Specialty Hospital-Augusta,33.476100000000002,-81.990200000000002,80.00,13245000300,Richmond,Georgia
6380050,St. Mary's Health Care System,33.947699999999998,-83.405600000000007,173.00,13059000900,Clarke,Georgia
6380065,Select Specialty Hospital Midtown Atlanta,33.773800000000001,-84.3827,72.00,13121001201,Fulton,Georgia
6380080,Emory University Hospital Midtown,33.768900000000002,-84.385199999999998,532.00,13121001900,Fulton,Georgia
6380110,Wellstar Atlanta Medical Center,33.762900000000002,-84.373000000000005,506.00,13121001700,Fulton,Georgia
6380130,Grady Memorial Hospital,33.7517,-84.382099999999994,1060.00,13121011900,Fulton,Georgia
6380171,Northside Hospital,33.909199999999998,-84.354100000000003,506.00,13121010115,Fulton,Georgia
6380180,Piedmont Hospital,33.808799999999998,-84.394400000000005,512.00,13121009101,Fulton,Georgia
6380200,Emory Saint Joseph's Hospital of Atlanta,33.908499999999997,-84.349599999999995,352.00,13121010115,Fulton,Georgia
6380215,WellStar Windy Hill Hospital,33.899799999999999,-84.479500000000002,19.00,13067030345,Cobb,Georgia
6380225,Shepherd Center,33.810400000000001,-84.394199999999998,132.00,13121009101,Fulton,Georgia
6380240,Atlanta Veterans Affairs Medical Center,33.801699999999997,-84.311700000000002,273.00,13089021504,DeKalb,Georgia
6380252,Landmark Hospital of Athens,33.966299999999997,-83.411600000000007,42.00,13059001700,Clarke,Georgia
6380253,RiverWoods Behavioral Health System,33.582000000000001,-84.390900000000002,75.00,13063040522,Clayton,Georgia
6380254,Augusta University Medical Center,33.470599999999997,-81.989900000000006,466.00,13245011000,Richmond,Georgia
6380257,SummitRidge Hospital,33.942500000000003,-83.989599999999996,96.00,13135050522,Gwinnett,Georgia
6380258,Roosevelt Warm Springs Rehabilitation and Specialty Hospitals - LTAC,32.890999999999998,-84.685299999999998,32.00,13199970600,Meriwether,Georgia
6380265,Doctors Hospital,33.482999999999997,-82.090199999999996,288.00,13245010204,Richmond,Georgia
6380270,University Hospital,33.470700000000001,-81.983099999999993,568.00,13245011000,Richmond,Georgia
6380275,Walton Rehabilitation Hospital,33.474899999999998,-81.980099999999993,58.00,13245011000,Richmond,Georgia
6380280,Charlie Norwood Veterans Affairs Medical Center,33.465899999999998,-82.026200000000003,338.00,13245001200,Richmond,Georgia
6380285,WellStar Cobb Hospital,33.857199999999999,-84.605099999999993,372.00,13067031406,Cobb,Georgia
6380290,Anchor Hospital,33.6068,-84.452299999999994,124.00,13063040203,Clayton,Georgia
6380298,Memorial Hospital and Manor,30.902899999999999,-84.552199999999999,80.00,13087970600,Decatur,Georgia
6380315,Appling Healthcare System,31.77,-82.350099999999998,150.00,13001950300,Appling,Georgia
6380319,LifeBrite Community Hospital of Early,31.3733,-84.945599999999999,152.00,13099090300,Early,Georgia
6380323,Fannin Regional Hospital,34.9176,-84.374499999999998,50.00,13111050200,Fannin,Georgia
6380325,Northside Hospital - Gwinnett,33.963500000000003,-84.017700000000005,556.00,13135050536,Gwinnett,Georgia
6380338,Higgins General Hospital,33.716700000000003,-85.145300000000006,23.00,13143010400,Haralson,Georgia
6380340,Southeast Georgia Health System Brunswick Campus,31.1754,-81.484499999999997,532.00,13127000501,Glynn,Georgia
6380360,Grady General Hospital,30.863600000000002,-84.200299999999999,39.00,13131950500,Grady,Georgia
6380365,AdventHealth Gordon,34.510100000000001,-84.926299999999998,83.00,13129970400,Gordon,Georgia
6380373,Mitchell County Hospital,31.229199999999999,-84.205600000000004,181.00,13205090400,Mitchell,Georgia
6380375,Dwight David Eisenhower Army Medical Center,33.430300000000003,-82.125799999999998,107.00,13245010800,Richmond,Georgia
6380378,Winn Army Community Hospital,31.880099999999999,-81.587500000000006,37.00,13179010103,Liberty,Georgia
6380382,Northside Hospital-Cherokee,34.231299999999997,-84.459400000000002,130.00,13057090602,Cherokee,Georgia
6380385,Tanner Medical Center-Carrollton,33.569800000000001,-85.074399999999997,146.00,13045911100,Carroll,Georgia
6380395,Cartersville Medical Center,34.200800000000001,-84.795299999999997,80.00,13015960401,Bartow,Georgia
6380400,Emory Johns Creek Hospital,34.066699999999997,-84.176400000000001,118.00,13121011626,Fulton,Georgia
6380401,AdventHealth Murray,34.780000000000001,-84.783199999999994,12.00,13213010400,Murray,Georgia
6380405,Polk Medical Center,34.014200000000002,-85.194800000000001,25.00,13233010500,Polk,Georgia
6380415,Piedmont Columbus Regional Northside,32.534500000000001,-84.9512,100.00,13215010401,Muscogee,Georgia
6380425,Mountain Lakes Medical Center,34.882199999999997,-83.414500000000004,16.00,13241970201,Rabun,Georgia
6380426,Evans Memorial Hospital,32.166200000000003,-81.898799999999994,10.00,13109970300,Evans,Georgia
6380427,Bleckley Memorial Hospital,32.3842,-83.345699999999994,25.00,13023790300,Bleckley,Georgia
6380430,Piedmont Columbus Regional Midtown,32.480499999999999,-84.981700000000004,510.00,13215011100,Muscogee,Georgia
6380440,West Central Georgia Regional Hospital,32.490200000000002,-84.869399999999999,194.00,13215010606,Muscogee,Georgia
6380447,Northridge Medical Center,34.220300000000002,-83.4709,207.00,13157010300,Jackson,Georgia
6380449,Miller County Hospital,31.1754,-84.735399999999998,216.00,13201950200,Miller,Georgia
6380450,Crisp Regional Hospital,31.977599999999999,-83.781300000000002,316.00,13081010100,Crisp,Georgia
6380455,Piedmont Newton Hospital,33.601300000000002,-83.847999999999999,103.00,13217100300,Newton,Georgia
6380463,Northside Hospital-Forsyth,34.178800000000003,-84.140299999999996,319.00,13117130510,Forsyth,Georgia
6380470,Southwest Georgia Regional Medical Center,31.775300000000001,-84.793199999999999,25.00,13243790200,Randolph,Georgia
6380475,WellStar Paulding Hospital,33.900700000000001,-84.781499999999994,294.00,13223120302,Paulding,Georgia
6380478,Southeastern Regional Medical Center,33.384900000000002,-84.757800000000003,50.00,13077170305,Coweta,Georgia
6380480,Hamilton Medical Center,34.789700000000003,-84.984700000000004,227.00,13313000502,Whitfield,Georgia
6380486,Phoebe Putney Memorial Hospital,31.590499999999999,-84.157799999999995,442.00,13095011300,Dougherty,Georgia
6380488,Emory Decatur Hospital,33.790799999999997,-84.282799999999995,472.00,13089022203,DeKalb,Georgia
6380489,Georgia Regional Hospital at Atlanta,33.694899999999997,-84.272499999999994,319.00,13089023423,DeKalb,Georgia
6380495,Habersham Medical Center,34.581000000000003,-83.537099999999995,137.00,13137000500,Habersham,Georgia
6380497,Northeast Georgia Medical Center Braselton,34.120600000000003,-83.837900000000005,100.00,13139001608,Hall,Georgia
6380498,Landmark Hospital of Savannah,32.028599999999997,-81.095200000000006,50.00,13051003400,Chatham,Georgia
6380500,Donalsonville Hospital,31.051400000000001,-84.881100000000004,140.00,13253200200,Seminole,Georgia
6380505,Fairview Park Hospital,32.532299999999999,-82.950500000000005,168.00,13175950500,Laurens,Georgia
6380508,Lakeview Behavioral Health,33.956899999999997,-84.218299999999999,70.00,13135050310,Gwinnett,Georgia
6380510,Coffee Regional Medical Center,31.509599999999999,-82.863500000000002,88.00,13069010500,Coffee,Georgia
6380511,Veritas Collaborative,33.939300000000003,-84.353800000000007,50.00,13121010122,Fulton,Georgia
6380515,Youth Villages Inner Harbour Campus,33.680199999999999,-84.730400000000003,190.00,13097080511,Douglas,Georgia
6380520,Emory Long-Term Acute Care,33.777500000000003,-84.292900000000003,50.00,13089022600,DeKalb,Georgia
6380525,WellStar Douglas Hospital,33.739400000000003,-84.731099999999998,108.00,13097080304,Douglas,Georgia
6380540,Carl Vinson Veterans Affairs Medical Center,32.5364,-82.943200000000004,178.00,13175950500,Laurens,Georgia
6380549,Dodge County Hospital,32.185600000000001,-83.178799999999995,35.00,13091960300,Dodge,Georgia
6380557,Putnam General Hospital,33.443800000000003,-83.261099999999999,25.00,13133950301,Greene,Georgia
6380560,Elbert Memorial Hospital,34.112499999999997,-82.874799999999993,35.00,13105000400,Elbert,Georgia
6380570,Emory University Hospital,33.792099999999998,-84.322199999999995,645.00,13089022402,DeKalb,Georgia
6380574,Dorminy Medical Center,31.698,-83.259600000000006,58.00,13017960500,Ben Hill,Georgia
6380577,Monroe County Hospital,33.031999999999996,-83.946200000000005,25.00,13207050200,Monroe,Georgia
6380580,Martin Army Community Hospital,32.373600000000003,-84.928399999999996,57.00,13053020205,Chattahoochee,Georgia
6380595,CHI Memorial Hospital - Georgia,34.9467,-85.264099999999999,35.00,13047030700,Catoosa,Georgia
6380598,Medical Center of Peach County Navicent Health,32.604900000000001,-83.759100000000004,25.00,13225040101,Peach,Georgia
6380635,St. Mary's Good Samaritan Hospital,33.481400000000001,-83.242199999999997,25.00,13133950302,Greene,Georgia
6380640,Wellstar Spalding Regional Hospital,33.238900000000001,-84.267300000000006,160.00,13255161200,Spalding,Georgia
6380650,Taylor Regional Hospital,32.298000000000002,-83.490200000000002,57.00,13235950200,Pulaski,Georgia
6380652,Liberty Regional Medical Center,31.839500000000001,-81.600999999999999,25.00,13179010300,Liberty,Georgia
6380653,Jeff Davis Hospital,31.857199999999999,-82.606899999999996,25.00,13161960100,Jeff Davis,Georgia
6380655,Chatuge Regional Hospital and Nursing Home,34.946399999999997,-83.753600000000006,150.00,13281960300,Towns,Georgia
6380665,Clinch Memorial Hospital,31.033999999999999,-82.764300000000006,25.00,13065970100,Clinch,Georgia
6380667,Wellstar Sylvan Grove Hospital,33.304499999999997,-83.979900000000001,24.00,13035150200,Butts,Georgia
6380676,Piedmont Mountainside Hospital,34.445599999999999,-84.4482,52.00,13227050500,Pickens,Georgia
6380680,Wayne Memorial Hospital,31.601900000000001,-81.8917,84.00,13305970300,Wayne,Georgia
6380682,Devereux Advanced Behavioral Health Georgia,33.987200000000001,-84.608999999999995,110.00,13067030230,Cobb,Georgia
6380690,Wellstar West Georgia Medical Center,33.032600000000002,-85.058599999999998,390.00,13285960300,Troup,Georgia
6380693,South Georgia Medical Center Lanier Campus,31.042300000000001,-83.086299999999994,25.00,13173950200,Lanier,Georgia
6380715,Coliseum Medical Centers,32.847299999999997,-83.617900000000006,227.00,13021013800,Bibb,Georgia
6380730,Medical Center Navicent Health,32.833599999999997,-83.635300000000001,586.00,13021013700,Bibb,Georgia
6380745,Coliseum Northside Hospital,32.871499999999997,-83.694500000000005,103.00,13021012102,Bibb,Georgia
6380774,Morgan Memorial Hospital,33.583500000000001,-83.480400000000003,25.00,13211010300,Morgan,Georgia
6380775,WellStar Kennestone Hospital,33.9696,-84.551599999999993,657.00,13067030602,Cobb,Georgia
6380805,Navicent Health Baldwin,33.089700000000001,-83.245400000000004,111.00,13009970500,Baldwin,Georgia
638080A,Candler County Hospital,32.406999999999996,-82.065600000000003,25.00,13043950100,Candler,Georgia
6380810,Central State Hospital,33.0518,-83.221100000000007,182.00,13009970702,Baldwin,Georgia
6380815,Turning Point Hospital,31.130299999999998,-83.772599999999997,69.00,13071970701,Colquitt,Georgia
6380850,Jenkins County Medical Center,32.804299999999998,-81.934399999999997,25.00,13165960100,Jenkins,Georgia
6380860,Piedmont Walton Hospital,33.798900000000003,-83.750299999999996,52.00,13297110700,Walton,Georgia
6380880,Flint River Community Hospital,32.293999999999997,-84.030100000000004,49.00,13193000400,Macon,Georgia
6380885,Jasper Memorial Hospital,33.314399999999999,-83.686400000000006,67.00,13159010500,Jasper,Georgia
6380890,Colquitt Regional Medical Center,31.1265,-83.783000000000001,99.00,13071970600,Colquitt,Georgia
6380901,South Georgia Medical Center Berrien Campus,31.202999999999999,-83.238699999999994,39.00,13019970500,Berrien,Georgia
6380945,Southern Regional Medical Center,33.5794,-84.389700000000005,331.00,13063040522,Clayton,Georgia
6380950,Floyd Medical Center,34.259500000000003,-85.179299999999998,327.00,13115001100,Floyd,Georgia
6380955,Optim Medical Center - Tattnall,32.080500000000001,-82.109099999999998,25.00,13267950201,Tattnall,Georgia
6380960,Redmond Regional Medical Center,34.277000000000001,-85.194999999999993,230.00,13115000500,Floyd,Georgia
6380985,Southeast Georgia Health System Camden Campus,30.780899999999999,-81.615099999999998,40.00,13039010401,Camden,Georgia
6380987,Washington County Regional Medical Center,32.995800000000003,-82.804299999999998,116.00,13303950400,Washington,Georgia
6380995,Wellstar North Fulton Hospital,34.063200000000002,-84.319900000000004,173.00,13121011611,Fulton,Georgia
6381010,Georgia Regional Hospital at Savannah,32.000399999999999,-81.084900000000005,105.00,13051004002,Chatham,Georgia
6381027,Memorial Health,32.030000000000001,-81.089500000000001,523.00,13051003501,Chatham,Georgia
6381030,Saint Simons by-the-Sea Hospital,31.163799999999998,-81.402100000000004,101.00,13127000102,Glynn,Georgia
6381040,St. Joseph's Hospital,31.985199999999999,-81.154799999999994,231.00,13051004208,Chatham,Georgia
6381065,Ridgeview Institute,33.8568,-84.514600000000002,110.00,13067031118,Cobb,Georgia
6381075,Eastside Medical Center,33.877400000000002,-84.021799999999999,294.00,13135050718,Gwinnett,Georgia
6381080,Candler Hospital,32.027999999999999,-81.100200000000001,264.00,13051003400,Chatham,Georgia
6381097,Effingham Hospital,32.364400000000003,-81.320099999999996,130.00,13103030203,Effingham,Georgia
6381100,East Georgia Regional Medical Center,32.414400000000001,-81.770300000000006,149.00,13031110403,Bulloch,Georgia
6381105,Willingway Hospital,32.445799999999998,-81.748999999999995,40.00,13031110601,Bulloch,Georgia
6381115,Piedmont Henry Hospital,33.510399999999997,-84.227199999999996,258.00,13151070114,Henry,Georgia
6381124,Emanuel Medical Center,32.592799999999997,-82.347200000000001,91.00,13107970400,Emanuel,Georgia
6381125,Optim Medical Center - Screven,32.75,-81.646799999999999,25.00,13251970300,Screven,Georgia
6381127,Phoebe Worth Medical Center,31.511800000000001,-83.840299999999999,18.00,13321950500,Worth,Georgia
6381130,Upson Regional Medical Center,32.886299999999999,-84.336200000000005,93.00,13293010400,Upson,Georgia
6381140,John D. Archbold Memorial Hospital,30.825199999999999,-83.972099999999998,305.00,13275960900,Thomas,Georgia
6381150,University Hospital McDuffie,33.523200000000003,-82.504499999999993,22.00,13189950100,McDuffie,Georgia
6381160,Tift Regional Medical Center,31.471599999999999,-83.491399999999999,181.00,13277960400,Tift,Georgia
6381170,Stephens County Hospital,34.593699999999998,-83.3489,188.00,13257970100,Stephens,Georgia
6381193,South Georgia Medical Center,30.862500000000001,-83.286299999999997,203.00,13185010401,Lowndes,Georgia
6381200,Greenleaf Behavioral Health Hospital,30.860199999999999,-83.258899999999997,103.00,13185010402,Lowndes,Georgia
6381201,Meadows Regional Medical Center,32.209000000000003,-82.375900000000001,57.00,13279970200,Toombs,Georgia
6381215,Tanner Medical Center-Villa Rica,33.744399999999999,-84.916799999999995,132.00,13045910101,Carroll,Georgia
6381220,Roosevelt Warm Springs Rehabilitation Hospital - Rehab,32.890999999999998,-84.685299999999998,52.00,13199970600,Meriwether,Georgia
6381223,Warm Springs Medical Center,32.890599999999999,-84.682900000000004,104.00,13199970600,Meriwether,Georgia
6381225,Houston Medical Center,32.616799999999998,-83.630700000000004,237.00,13153020900,Houston,Georgia
6381230,Wills Memorial Hospital,33.729500000000002,-82.742999999999995,25.00,13317010302,Wilkes,Georgia
6381250,Memorial Satilla Health,31.2242,-82.347899999999996,199.00,13299950500,Ware,Georgia
6381255,Burke Medical Center,33.083500000000001,-82.011300000000006,40.00,13033950500,Burke,Georgia
6381265,Northeast Georgia Medical Center Barrow,34.008000000000003,-83.707700000000003,30.00,13013180206,Barrow,Georgia
6388093,Perry Hospital,32.459600000000002,-83.709699999999998,39.00,13153021400,Houston,Georgia
6388108,Coastal Harbor Treatment Center,32.012500000000003,-81.095500000000001,191.00,13051004001,Chatham,Georgia
6389065,Union General Hospital,34.885800000000003,-83.962199999999996,195.00,13291000205,Union,Georgia
6389100,Piedmont Rockdale Hospital,33.681100000000001,-84.001499999999993,158.00,13247060308,Rockdale,Georgia
6389155,Jefferson Hospital,33.0105,-82.405600000000007,37.00,13163960300,Jefferson,Georgia
6389175,Irwin County Hospital,31.603400000000001,-83.251300000000001,64.00,13155950200,Irwin,Georgia
6389185,Brooks County Hospital,30.795400000000001,-83.5595,25.00,13027960400,Brooks,Georgia
6389226,St. Mary's Sacred Heart Hospital,34.439799999999998,-83.132400000000004,41.00,13119890101,Franklin,Georgia
6389228,Emory Rehabilitation Hospital,33.794899999999998,-84.320400000000006,46.00,13089022402,DeKalb,Georgia
6389230,Encompass Health Rehabilitation Hospital of Savannah,32.008200000000002,-81.0946,50.00,13051004001,Chatham,Georgia
6390002,DeSoto Memorial Hospital,27.226800000000001,-81.850300000000004,45.00,12027010200,DeSoto,Florida
6390003,George E. Weems Memorial Hospital,29.724,-84.991799999999998,20.00,12037970304,Franklin,Florida
6390004,Leesburg Regional Medical Center,28.8081,-81.868300000000005,329.00,12069030602,Lake,Florida
6390005,AdventHealth Sebring,27.539200000000001,-81.510000000000005,180.00,12055960502,Highlands,Florida
6390010,Bartow Regional Medical Center,27.917999999999999,-81.843999999999994,72.00,12105014803,Polk,Florida
6390018,Lower Keys Medical Center,24.5809,-81.742599999999996,90.00,12087971900,Monroe,Florida
6390023,Encompass Health Rehabilitation Hospital of Largo,27.9254,-82.797399999999996,70.00,12103025602,Pinellas,Florida
6390030,Bay Pines Veterans Affairs Healthcare System,27.813400000000001,-82.777000000000001,396.00,12103025106,Pinellas,Florida
6390033,West Palm Beach Veterans Affairs Medical Center,26.785599999999999,-80.111099999999993,300.00,12099001003,Palm Beach,Florida
6390034,Memorial Hospital West,26.013999999999999,-80.309700000000007,485.00,12011110309,Broward,Florida
6390035,Lakeside Medical Center,26.7242,-80.671300000000002,70.00,12099008102,Palm Beach,Florida
6390037,Calhoun-Liberty Hospital,30.4587,-85.050200000000004,25.00,12013010300,Calhoun,Florida
6390038,Boca Raton Regional Hospital,26.358599999999999,-80.102400000000003,374.00,12099007602,Palm Beach,Florida
6390039,Flagler Hospital,29.863499999999998,-81.317599999999999,204.00,12109021302,St. Johns,Florida
6390040,Doctors Memorial Hospital,30.760899999999999,-85.683300000000003,20.00,12059960400,Holmes,Florida
6390043,University Hospital and Medical Center,26.2121,-80.254400000000004,317.00,12011020411,Broward,Florida
6390045,West Boca Medical Center,26.356000000000002,-80.199200000000005,195.00,12099007740,Palm Beach,Florida
6390046,AdventHealth Fish Memorial,28.914000000000001,-81.284800000000004,175.00,12127090806,Volusia,Florida
6390048,Lawnwood Regional Medical Center & Heart Institute,27.431999999999999,-80.345100000000002,331.00,12111380400,St. Lucie,Florida
6390050,Bethesda Hospital East,26.504799999999999,-80.070400000000006,481.00,12099006300,Palm Beach,Florida
6390052,Sarasota Memorial Health Care System,27.259799999999998,-80.828500000000005,788.00,12093910300,Okeechobee,Florida
6390053,St. Joseph's Hospital,27.9815,-82.489099999999993,1062.00,12057002500,Hillsborough,Florida
6390055,Blake Medical Center,27.482199999999999,-82.623400000000004,383.00,12081000407,Manatee,Florida
6390056,Halifax Health Medical Center of Daytona Beach,29.200399999999998,-81.054699999999997,673.00,12127081800,Volusia,Florida
6390059,Kindred Hospital North Florida,29.988299999999999,-81.682000000000002,80.00,12019031400,Clay,Florida
6390060,AdventHealth Palm Coast,29.479199999999999,-81.189400000000006,99.00,12035060213,Flagler,Florida
6390061,Kindred Hospital Central Tampa,27.9895,-82.481200000000001,109.00,12057002400,Hillsborough,Florida
6390064,Manatee Memorial Hospital,27.497299999999999,-82.562200000000004,319.00,12081000703,Manatee,Florida
6390067,Bayfront Health Brooksville,28.538499999999999,-82.442999999999998,120.00,12053040602,Hernando,Florida
6390068,Cape Coral Hospital,26.639399999999998,-81.943200000000004,291.00,12071010307,Lee,Florida
6390070,Brandon Regional Hospital,27.932700000000001,-82.287400000000005,407.00,12057013311,Hillsborough,Florida
6390071,Springbrook Hospital,28.533999999999999,-82.483500000000006,66.00,12053040802,Hernando,Florida
6390074,JFK Medical Center,26.598600000000001,-80.091499999999996,424.00,12099004902,Palm Beach,Florida
6390076,Encompass Health Rehabilitation Hospital of Miami,25.5748,-80.340900000000005,60.00,12086010612,Miami-Dade,Florida
6390079,Winter Haven Hospital,28.0276,-81.724699999999999,361.00,12105013702,Polk,Florida
6390080,Florida State Hospital,30.704999999999998,-84.843000000000004,987.00,12039020400,Gadsden,Florida
6390081,Delray Medical Center,26.437000000000001,-80.127799999999993,536.00,12099005915,Palm Beach,Florida
6390082,UF Health Jacksonville,30.348800000000001,-81.664599999999993,644.00,12031001600,Duval,Florida
6390084,Sacred Heart Hospital on the Emerald Coast,30.378399999999999,-86.307000000000002,76.00,12131950603,Walton,Florida
6390085,Northwest Florida Community Hospital,30.766300000000001,-85.542900000000003,59.00,12133970103,Washington,Florida
6390086,Melbourne Regional Medical Center,28.109200000000001,-80.674199999999999,119.00,12009064602,Brevard,Florida
6390090,Morton Plant Hospital,27.9528,-82.802999999999997,650.00,12103025900,Pinellas,Florida
6390093,South Lake Hospital,28.552,-81.7209,170.00,12069031307,Lake,Florida
6390095,Hendry Regional Medical Center,26.753299999999999,-80.941500000000005,25.00,12051000100,Hendry,Florida
6390097,Health First Cape Canaveral Hospital,28.360099999999999,-80.623099999999994,144.00,12009068400,Brevard,Florida
6390098,Windmoor Healthcare of Clearwater,27.8749,-82.711200000000005,144.00,12103024505,Pinellas,Florida
6390102,The Villages Regional Hospital,28.950199999999999,-81.958299999999994,307.00,12119910800,Sumter,Florida
6390103,Physicians Regional - Pine Ridge,26.213799999999999,-81.732600000000005,193.00,12021010416,Collier,Florida
6390105,Doctors Hospital,25.724299999999999,-80.274199999999993,126.00,12086980300,Miami-Dade,Florida
6390106,Encompass Health Rehabilitation Hospital of Spring Hill,28.5319,-82.517099999999999,80.00,12053041003,Hernando,Florida
6390107,Encompass Health Rehabilitation Hospital of Panama City,30.181899999999999,-85.669499999999999,75.00,12005002000,Bay,Florida
6390109,Lakewood Ranch Medical Center,27.390699999999999,-82.435299999999998,120.00,12081002017,Manatee,Florida
6390110,Miami Veterans Affairs Healthcare System,25.791499999999999,-80.216300000000004,284.00,12086003004,Miami-Dade,Florida
6390111,Memorial Hospital Miramar,25.9909,-80.3733,178.00,12011110325,Broward,Florida
6390112,Centerstone Hospital,27.475899999999999,-82.539500000000004,62.00,12081000803,Manatee,Florida
6390114,West Gables Rehabilitation Hospital,25.7471,-80.316999999999993,60.00,12086006002,Miami-Dade,Florida
6390115,North Okaloosa Medical Center,30.735600000000002,-86.562200000000004,110.00,12091020700,Okaloosa,Florida
6390117,Select Specialty Hospital-Miami,25.777000000000001,-80.210800000000006,47.00,12086005202,Miami-Dade,Florida
6390118,Seven Rivers Regional Medical Center,28.951799999999999,-82.624499999999998,128.00,12017450303,Citrus,Florida
6390119,Select Specialty Hospital-Orlando,28.572399999999998,-81.370400000000004,75.00,12095012800,Orange,Florida
6390120,AdventHealth Zephyrhills,28.260899999999999,-82.188000000000002,149.00,12101032804,Pasco,Florida
6390121,Select Specialty Hospital-Panama City,30.159700000000001,-85.648600000000002,30.00,12005001600,Bay,Florida
6390123,St. Anthony's Rehabilitation Hospital,26.163799999999998,-80.193399999999997,26.00,12011050307,Broward,Florida
6390124,Health First Palm Bay Hospital,27.9984,-80.612700000000004,120.00,12009065202,Brevard,Florida
6390126,Suncoast Behavioral Health Center,27.459700000000002,-82.613299999999995,60.00,12081001106,Manatee,Florida
6390129,Kindred Hospital Ocala,29.1754,-82.138800000000003,31.00,12083001900,Marion,Florida
6390131,The Vines,29.1556,-82.1708,98.00,12083002401,Marion,Florida
6390135,AdventHealth Dade City,28.347899999999999,-82.201400000000007,120.00,12101032602,Pasco,Florida
6390145,St. Vincent's Medical Center Southside,30.253799999999998,-81.582700000000003,260.00,12031015923,Duval,Florida
6390146,Select Specialty Hospital-Tallahassee,30.4618,-84.252799999999993,29.00,12073000901,Leon,Florida
6390147,Select Specialty Hospital-Pensacola,30.4786,-87.215500000000006,75.00,12033001201,Escambia,Florida
6390148,Select Specialty Hospital-Palm Beach,26.608899999999998,-80.0916,60.00,12099004903,Palm Beach,Florida
6390149,Select Specialty Hospital-Gainesville,29.632100000000001,-82.363900000000001,44.00,12001001514,Alachua,Florida
6390150,Broward Health Coral Springs,26.2684,-80.255700000000004,220.00,12011020314,Broward,Florida
6390155,Healthmark Regional Medical Center,30.66,-86.117599999999996,50.00,12131950400,Walton,Florida
6390160,Mease Countryside Hospital,28.038799999999998,-82.707800000000006,311.00,12103026814,Pinellas,Florida
6390161,AdventHealth DeLand,29.043900000000001,-81.317499999999995,164.00,12127090202,Volusia,Florida
6390170,Mease Dunedin Hospital,28.0137,-82.782700000000006,120.00,12103027101,Pinellas,Florida
6390180,Westside Regional Medical Center,26.1235,-80.259500000000003,224.00,12011060605,Broward,Florida
6390188,Kindred Hospital the Palm Beaches,26.782900000000001,-80.110399999999998,70.00,12099001003,Palm Beach,Florida
6390190,AdventHealth Waterman,28.823799999999999,-81.714699999999993,300.00,12069030803,Lake,Florida
6390200,Baptist Medical Center Nassau,30.653099999999998,-81.448599999999999,52.00,12089050101,Nassau,Florida
6390205,Cleveland Clinic Florida,26.081600000000002,-80.363799999999998,206.00,12011070313,Broward,Florida
6390210,Broward Health Medical Center,26.1022,-80.140799999999999,614.00,12011042302,Broward,Florida
6390215,Broward Health Imperial Point,26.206800000000001,-80.110900000000001,193.00,12011040206,Broward,Florida
6390222,BayCare Alliant Hospital,28.0137,-82.782700000000006,34.00,12103027101,Pinellas,Florida
6390223,PAM Specialty Hospital of Sarasota,27.3019,-82.446299999999994,40.00,12115001401,Sarasota,Florida
6390225,North Florida Regional Medical Center,29.660299999999999,-82.411600000000007,432.00,12001001702,Alachua,Florida
6390230,Holy Cross Hospital,26.187100000000001,-80.119900000000001,365.00,12011040300,Broward,Florida
6390233,Fort Lauderdale Behavioral Health Center,26.119700000000002,-80.126800000000003,182.00,12011041900,Broward,Florida
6390240,Lee Memorial Hospital,26.6282,-81.874300000000005,874.00,12071000800,Lee,Florida
6390248,Gulf Breeze Hospital,30.3611,-87.156999999999996,65.00,12113010900,Santa Rosa,Florida
6390253,Fort Walton Beach Medical Center,30.454599999999999,-86.633499999999998,257.00,12091021802,Okaloosa,Florida
6390265,Larkin Community Hospital Behavioral Health Services,26.0212,-80.180700000000002,50.00,12011090900,Broward,Florida
6390271,UF Health Rehab Hospital,29.632200000000001,-82.364000000000004,60.00,12001001514,Alachua,Florida
6390282,Aventura Hospital and Medical Center,25.969999999999999,-80.145399999999995,359.00,12086000134,Miami-Dade,Florida
6390283,UF Health Shands Hospital,29.639900000000001,-82.343599999999995,1015.00,12001000902,Alachua,Florida
6390286,AdventHealth Heart of Florida,28.1815,-81.641900000000007,193.00,12105012411,Polk,Florida
6390287,Hialeah Hospital,25.845500000000001,-80.268900000000002,191.00,12086000605,Miami-Dade,Florida
6390292,Larkin Community Hospital-Palm Springs Campus,25.8689,-80.312299999999993,261.00,12086000708,Miami-Dade,Florida
6390295,Memorial Regional Hospital,26.018899999999999,-80.179699999999997,1013.00,12011090900,Broward,Florida
6390298,South Florida State Hospital,26.0014,-80.249799999999993,355.00,12011110341,Broward,Florida
6390300,Homestead Hospital,25.479199999999999,-80.430499999999995,147.00,12086011009,Miami-Dade,Florida
6390305,Citrus Memorial Health System,28.833400000000001,-82.335999999999999,204.00,12017451000,Citrus,Florida
6390306,Mariners Hospital,25.006,-80.522000000000006,25.00,12087970700,Monroe,Florida
6390308,Baptist Medical Center Jacksonville,30.314900000000002,-81.662700000000001,955.00,12031000800,Duval,Florida
6390309,Brooks Rehabilitation Hospital,30.289899999999999,-81.601600000000005,146.00,12031016000,Duval,Florida
6390323,Gulf Coast Medical Center,26.5442,-81.850399999999993,431.00,12071001202,Lee,Florida
6390380,Mayo Clinic Hospital in Florida,30.262799999999999,-81.441500000000005,304.00,12031014410,Duval,Florida
6390385,Regional Medical Center Bayonet Point,28.3613,-82.688199999999995,290.00,12101031204,Pasco,Florida
6390390,St. Vincent's Medical Center Riverside,30.307200000000002,-81.689899999999994,479.00,12031017100,Duval,Florida
6390400,River Point Behavioral Health,30.291,-81.597499999999997,92.00,12031016000,Duval,Florida
6390403,AdventHealth Connerton,28.295400000000001,-82.489999999999995,77.00,12101031902,Pasco,Florida
6390404,Health First Viera Hospital,28.228300000000001,-80.729399999999998,84.00,12009071301,Brevard,Florida
6390405,Sacred Heart Hospital on the Gulf,29.779199999999999,-85.287599999999998,12.00,12045960300,Gulf,Florida
6390406,Wekiva Springs,30.257300000000001,-81.593999999999994,60.00,12031015924,Duval,Florida
6390407,West Florida Community Care Center,30.6343,-87.042400000000001,100.00,12113010600,Santa Rosa,Florida
6390408,Central Florida Behavioral Hospital,28.409199999999998,-81.469800000000006,126.00,12095017004,Orange,Florida
6390409,Memorial Hospital Jacksonville,30.287800000000001,-81.601200000000006,418.00,12031016000,Duval,Florida
6390410,Naval Hospital Jacksonville,30.224699999999999,-81.692899999999995,64.00,12031013200,Duval,Florida
6390411,Baptist Medical Center Beaches,30.273299999999999,-81.398099999999999,135.00,12031014204,Duval,Florida
6390417,Aspire Health Partners,28.567499999999999,-81.434799999999996,56.00,12095018700,Orange,Florida
6390418,Port St. Lucie Hospital,27.2973,-80.271299999999997,75.00,12111381803,St. Lucie,Florida
6390420,West Kendall Baptist Hospital,25.678599999999999,-80.456000000000003,133.00,12086018000,Miami-Dade,Florida
6390422,Emerald Coast Behavioral Hospital,30.183800000000002,-85.658199999999994,86.00,12005001600,Bay,Florida
6390423,Eastside Psychiatric Hospital,30.487100000000002,-84.240300000000005,24.00,12073001700,Leon,Florida
6390440,Osceola Regional Medical Center,28.299600000000002,-81.409700000000001,404.00,12097041600,Osceola,Florida
6390445,Lake City Medical Center,30.183499999999999,-82.688900000000004,67.00,12023110500,Columbia,Florida
6390455,Reception and Medical Center,30.023199999999999,-82.344200000000001,120.00,12125960200,Union,Florida
6390459,Lake Butler Hospital,30.0227,-82.326899999999995,25.00,12125960200,Union,Florida
6390470,Lakeland Regional Health Medical Center,28.060700000000001,-81.954700000000003,841.00,12105011300,Polk,Florida
6390480,AdventHealth Lake Wales,27.895900000000001,-81.5655,150.00,12105014302,Polk,Florida
6390488,Lehigh Regional Medical Center,26.6159,-81.659499999999994,53.00,12071040125,Lee,Florida
6390489,Largo Medical Center,27.914999999999999,-82.803600000000003,243.00,12103025203,Pinellas,Florida
6390499,Madison County Memorial Hospital,30.470700000000001,-83.419499999999999,25.00,12079110301,Madison,Florida
6390505,Ed Fraser Memorial Hospital,30.2851,-82.119,68.00,12003040101,Baker,Florida
6390508,Fishermen's Hospital,24.7102,-81.098500000000001,4.00,12087971300,Monroe,Florida
6390509,Northwest Medical Center,26.263100000000001,-80.2029,228.00,12011020205,Broward,Florida
6390510,Jackson Hospital,30.786799999999999,-85.241900000000001,68.00,12063210500,Jackson,Florida
6390515,Kendall Regional Medical Center,25.730899999999998,-80.386099999999999,300.00,12086015500,Miami-Dade,Florida
6390530,Health First Holmes Regional Medical Center,28.069400000000002,-80.612899999999996,514.00,12009064902,Brevard,Florida
6390537,Circles of Care,28.09,-80.615899999999996,134.00,12009064700,Brevard,Florida
6390545,Miami Jewish Home and Hospital for Aged,25.822900000000001,-80.192400000000006,32.00,12086002201,Miami-Dade,Florida
6390573,Jackson Health System,25.791799999999999,-80.212599999999995,2112.00,12086003001,Miami-Dade,Florida
6390578,Baptist Hospital of Miami,25.6831,-80.340299999999999,720.00,12086008405,Miami-Dade,Florida
6390580,Sea Pines Rehabilitation Hospital,28.055499999999999,-80.620000000000005,90.00,12009065124,Brevard,Florida
6390585,Devereux Hospital and Children's Center of Florida,28.233899999999998,-80.708500000000001,100.00,12009063107,Brevard,Florida
6390610,University of Miami Hospital and Clinics,25.788699999999999,-80.214600000000004,558.00,12086003001,Miami-Dade,Florida
6390615,North Shore Medical Center,25.860099999999999,-80.214100000000002,258.00,12086001005,Miami-Dade,Florida
6390625,Nicklaus Children's Hospital,25.741399999999999,-80.294499999999999,291.00,12086006001,Miami-Dade,Florida
6390640,Mount Sinai Medical Center,25.812999999999999,-80.141400000000004,609.00,12086004000,Miami-Dade,Florida
6390666,Santa Rosa Medical Center,30.634399999999999,-87.066999999999993,68.00,12113010504,Santa Rosa,Florida
6390668,AdventHealth New Smyrna Beach,29.020600000000002,-80.921899999999994,109.00,12127082802,Volusia,Florida
6390669,NCH Baker Hospital,26.150300000000001,-81.798699999999997,676.00,12021000102,Collier,Florida
6390670,AdventHealth Ocala,29.1754,-82.138800000000003,357.00,12083001900,Marion,Florida
6390673,Twin Cities Hospital,30.5335,-86.495599999999996,65.00,12091021200,Okaloosa,Florida
6390674,Morton Plant North Bay Hospital,28.254300000000001,-82.714500000000001,217.00,12101031401,Pasco,Florida
6390675,Raulerson Hospital,27.259899999999998,-80.828400000000002,100.00,12093910300,Okeechobee,Florida
6390676,St. Catherine's Rehabilitation Hospital,25.889900000000001,-80.177199999999999,60.00,12086000219,Miami-Dade,Florida
6390679,The Willough at Naples,26.096,-81.736099999999993,80.00,12021010801,Collier,Florida
6390680,Ocala Regional Medical Center,29.1755,-82.136899999999997,270.00,12083001900,Marion,Florida
6390682,AdventHealth Wesley Chapel,28.195399999999999,-82.351799999999997,145.00,12101032107,Pasco,Florida
6390683,Poinciana Medical Center,28.142700000000001,-81.476200000000006,24.00,12105012503,Polk,Florida
6390687,Nemours Children's Hospital,28.376999999999999,-81.273099999999999,108.00,12095016802,Orange,Florida
6390690,AdventHealth Orlando,28.5747,-81.369900000000001,3890.00,12095012800,Orange,Florida
6390691,St. Vincent's Medical Center Clay County,30.108899999999998,-81.832400000000007,106.00,12019030201,Clay,Florida
6390695,Orlando Regional Medical Center,28.526499999999999,-81.377600000000001,1342.00,12095018500,Orange,Florida
6390700,Orange Park Medical Center,30.166,-81.7376,314.00,12019030400,Clay,Florida
6390711,North Florida/South Georgia Veteran's Health System,29.637,-82.345299999999995,324.00,12001000809,Alachua,Florida
6390713,Landmark Hospital of Southwest Florida,26.269200000000001,-81.7928,50.00,12021010205,Collier,Florida
6390714,Encompass Health Rehabilitation Hospital of Altamonte Springs,28.6462,-81.4131,60.00,12117021706,Seminole,Florida
6390716,Select Specialty Hospital-Miami Lakes,25.900700000000001,-80.332300000000004,60.00,12086012800,Miami-Dade,Florida
6390727,AdventHealth Daytona Beach,29.243200000000002,-81.107500000000002,362.00,12127080804,Volusia,Florida
6390733,Oviedo Medical Center,28.657900000000001,-81.228099999999998,64.00,12117021314,Seminole,Florida
6390745,Putnam Community Medical Center,29.642600000000002,-81.692099999999996,99.00,12107950600,Putnam,Florida
6390753,Palms West Hospital,26.684200000000001,-80.251999999999995,204.00,12099007839,Palm Beach,Florida
6390765,Memorial Hospital Pembroke,26.029699999999998,-80.245699999999999,190.00,12011090700,Broward,Florida
639076A,Palm Beach Gardens Medical Center,26.829499999999999,-80.086600000000004,202.00,12099000804,Palm Beach,Florida
6390775,Bay Medical Sacred Heart,30.159700000000001,-85.648600000000002,74.00,12005001600,Bay,Florida
6390776,Gulf Coast Regional Medical Center,30.186599999999999,-85.665099999999995,176.00,12005001502,Bay,Florida
6390792,Baptist Hospital,30.429400000000001,-87.231300000000005,340.00,12033001800,Escambia,Florida
6390793,West Florida Hospital,30.515799999999999,-87.218000000000004,339.00,12033003507,Escambia,Florida
6390830,Sacred Heart Hospital Pensacola,30.475999999999999,-87.212900000000005,465.00,12033001201,Escambia,Florida
6390840,Naval Hospital Pensacola,30.398099999999999,-87.298299999999998,28.00,12033002804,Escambia,Florida
6390842,Doctor's Memorial Hospital,30.120100000000001,-83.593100000000007,24.00,12123950200,Taylor,Florida
6390843,Plantation General Hospital,26.1264,-80.205299999999994,264.00,12011060802,Broward,Florida
6390845,South Florida Baptist Hospital,28.015599999999999,-82.1387,141.00,12057012701,Hillsborough,Florida
6390846,St. Lucie Medical Center,27.288499999999999,-80.2941,194.00,12111381802,St. Lucie,Florida
6390848,Bayfront Health Punta Gorda,26.940999999999999,-82.040099999999995,190.00,12015010302,Charlotte,Florida
6390849,Broward Health North,26.276900000000001,-80.121499999999997,331.00,12011010702,Broward,Florida
6390851,Bayfront Health Port Charlotte,26.989100000000001,-82.095699999999994,254.00,12015020700,Charlotte,Florida
6390865,Fawcett Memorial Hospital,26.988900000000001,-82.0989,237.00,12015020700,Charlotte,Florida
6390870,Rockledge Regional Medical Center,28.3352,-80.723200000000006,215.00,12009062800,Brevard,Florida
6390895,St. Cloud Regional Medical Center,28.243099999999998,-81.302800000000005,84.00,12097043203,Osceola,Florida
6390900,Johns Hopkins All Children's Hospital,27.764399999999998,-82.640600000000006,259.00,12103028600,Pinellas,Florida
6390930,Bayfront Health St. Petersburg,27.763200000000001,-82.642700000000005,480.00,12103028600,Pinellas,Florida
6390932,Northside Hospital,27.825299999999999,-82.702399999999997,217.00,12103024801,Pinellas,Florida
6390935,Palms of Pasadena Hospital,27.752800000000001,-82.739599999999996,150.00,12103028104,Pinellas,Florida
6390940,St. Anthony's Hospital,27.778600000000001,-82.650800000000004,358.00,12103023400,Pinellas,Florida
6390944,St. Petersburg General Hospital,27.805399999999999,-82.726799999999997,219.00,12103022503,Pinellas,Florida
6390955,Central Florida Regional Hospital,28.814599999999999,-81.283600000000007,226.00,12117020500,Seminole,Florida
6390956,Doctors Hospital of Sarasota,27.2989,-82.458200000000005,155.00,12115001505,Sarasota,Florida
6390965,Sebastian River Medical Center,27.826599999999999,-80.430700000000002,154.00,12061050501,Indian River,Florida
6390975,Highlands Regional Medical Center,27.465699999999998,-81.433000000000007,80.00,12055961200,Highlands,Florida
6390990,Encompass Health Rehabilitation Hospital of Sarasota,27.300999999999998,-82.442599999999999,96.00,12115001401,Sarasota,Florida
6390993,Larkin Community Hospital-South Miami Campus,25.7056,-80.293099999999995,146.00,12086007603,Miami-Dade,Florida
6390994,South Miami Hospital,25.703499999999998,-80.293800000000005,336.00,12086007604,Miami-Dade,Florida
6390997,Oak Hill Hospital,28.5367,-82.534999999999997,280.00,12053040801,Hernando,Florida
6391000,Cleveland Clinic Martin North Hospital,27.199000000000002,-80.243499999999997,507.00,12085000800,Martin,Florida
6391015,Encompass Health Rehabilitation Hospital of Sunrise,26.178100000000001,-80.2851,126.00,12011060115,Broward,Florida
6391030,Tallahassee Memorial HealthCare,30.456700000000001,-84.261700000000005,495.00,12073000901,Leon,Florida
6391033,Capital Regional Medical Center,30.475999999999999,-84.231899999999996,198.00,12073002505,Leon,Florida
6391055,Encompass Health Rehabilitation Hospital of Tallahassee,30.459499999999998,-84.236999999999995,76.00,12073000901,Leon,Florida
6391060,Tampa General Hospital,27.938099999999999,-82.459199999999996,1007.00,12057005401,Hillsborough,Florida
6391069,H. Lee Moffitt Cancer Center and Research Institute,28.0656,-82.421199999999999,206.00,12057010900,Hillsborough,Florida
6391090,Memorial Hospital of Tampa,27.938099999999999,-82.489199999999997,139.00,12057005700,Hillsborough,Florida
6391095,Shriners Hospitals for Children-Tampa,28.061599999999999,-82.422799999999995,60.00,12057010900,Hillsborough,Florida
6391103,AdventHealth Tampa,28.069700000000001,-82.421999999999997,536.00,12057010813,Hillsborough,Florida
6391105,AdventHealth North Pinellas,28.1328,-82.757599999999996,187.00,12103027402,Pinellas,Florida
6391106,James A. Haley Veterans' Hospital-Tampa,28.063700000000001,-82.428700000000006,499.00,12057010814,Hillsborough,Florida
6391108,Parrish Medical Center,28.630800000000001,-80.824100000000001,210.00,12009060400,Brevard,Florida
6391118,U. S. Air Force Regional Hospital,30.450500000000002,-86.543300000000002,57.00,12091021400,Okaloosa,Florida
6391119,Venice Regional Bayfront Health,27.090499999999999,-82.444900000000004,221.00,12115002401,Sarasota,Florida
6391120,Cleveland Clinic Indian River Hospital,27.6585,-80.394300000000001,220.00,12061050301,Indian River,Florida
6391122,AdventHealth Wauchula,27.535499999999999,-81.816900000000004,25.00,12049970400,Hardee,Florida
6391125,Encompass Health Rehabilitation Hospital of Treasure Coast,27.661300000000001,-80.400199999999998,80.00,12061050301,Indian River,Florida
6391130,Good Samaritan Medical Center,26.725200000000001,-80.051900000000003,225.00,12099002300,Palm Beach,Florida
6391135,Jerome Golden Center for Behavioral Health Inc.,26.7545,-80.0672,44.00,12099001402,Palm Beach,Florida
6391140,St. Mary's Medical Center,26.7532,-80.062899999999999,460.00,12099001402,Palm Beach,Florida
6391150,Health Central Hospital,28.549800000000001,-81.527699999999996,439.00,12095014804,Orange,Florida
6391155,Wellington Regional Medical Center,26.6523,-80.204999999999998,235.00,12099007763,Palm Beach,Florida
6391450,Englewood Community Hospital,26.950099999999999,-82.326599999999999,100.00,12115002718,Sarasota,Florida
6393411,Jupiter Medical Center,26.922599999999999,-80.096500000000006,207.00,12099000205,Palm Beach,Florida
6394000,Coral Gables Hospital,25.743500000000001,-80.254800000000003,256.00,12086006203,Miami-Dade,Florida
6394001,Palmetto General Hospital,25.8857,-80.326400000000007,360.00,12086012900,Miami-Dade,Florida
6394020,South Bay Hospital,27.713699999999999,-82.365300000000005,138.00,12057014009,Hillsborough,Florida
6398093,Medical Center of Trinity,28.203800000000001,-82.659800000000004,276.00,12101031508,Pasco,Florida
6399040,Kindred Hospital South Florida-Fort Lauderdale,26.1191,-80.127600000000001,123.00,12011041900,Broward,Florida
6399075,Curahealth Jacksonville,30.271699999999999,-81.615499999999997,62.00,12031016200,Duval,Florida
6399090,Jay Hospital,30.950199999999999,-87.150800000000004,21.00,12113010200,Santa Rosa,Florida
6399145,Westchester General Hospital,25.747399999999999,-80.317700000000002,125.00,12086006002,Miami-Dade,Florida
6399235,AdventHealth Carrollwood,28.0136,-82.503799999999998,95.00,12057011902,Hillsborough,Florida
6399240,Kindred Hospital Bay Area-Tampa,27.898,-82.519000000000005,73.00,12057006501,Hillsborough,Florida
6399246,Kindred Hospital Melbourne,28.0928,-80.632400000000004,60.00,12009064700,Brevard,Florida
6399247,Promise Hospital of Florida at The Villages,28.9099,-82.019599999999997,40.00,12119911200,Sumter,Florida
6399248,LifeStream Behavioral Center,28.8368,-81.895399999999995,46.00,12069030504,Lake,Florida
6399249,Park Royal Hospital,26.510400000000001,-81.909499999999994,114.00,12071001906,Lee,Florida
6399250,Encompass Health Rehabilitation Hospital of Ocala,29.165700000000001,-82.161900000000003,60.00,12083002401,Marion,Florida
6399251,Encompass Health Rehabilitation Hospital an affiliate of Martin Health,27.1328,-80.221999999999994,54.00,12085001102,Martin,Florida
6399253,Select Specialty Hospital Daytona Beach,29.243200000000002,-81.107500000000002,34.00,12127080804,Volusia,Florida
6399254,Promise Hospital of Fort Myers,26.631599999999999,-81.802599999999998,60.00,12071040110,Lee,Florida
6399255,North Tampa Behavioral Health,28.200399999999998,-82.323800000000006,78.00,12101032111,Pasco,Florida
6399257,Orlando VA Medical Center,28.365300000000001,-81.274900000000002,370.00,12095016802,Orange,Florida
6520001,TriStar Ashland City Medical Center,36.277200000000001,-87.065700000000007,12.00,47021070300,Cheatham,Tennessee
6520002,TriStar Centennial Medical Center,36.153700000000001,-86.809200000000004,650.00,47037016500,Davidson,Tennessee
6520004,Vanderbilt Wilson County Hospital,36.220700000000001,-86.327299999999994,137.00,47189030500,Wilson,Tennessee
6520005,Saint Thomas River Park Hospital,35.700099999999999,-85.742800000000003,85.00,47177930500,Warren,Tennessee
6520007,Vanderbilt Stallworth Rehabilitation Hospital,36.138300000000001,-86.802300000000002,80.00,47037016500,Davidson,Tennessee
6520009,Quillen Rehabilitation Hospital,36.354999999999997,-82.373500000000007,31.00,47179061300,Washington,Tennessee
6520010,Starr Regional Medical Center,35.440800000000003,-84.607200000000006,63.00,47107970200,McMinn,Tennessee
6520011,Encompass Health Rehabilitation Hospital of Kingsport,36.5535,-82.551500000000004,50.00,47163040600,Sullivan,Tennessee
6520014,Encompass Health Rehabilitation Hospital of Memphis,35.137999999999998,-90.019199999999998,72.00,47157003600,Shelby,Tennessee
6520015,Parkridge Medical Center,35.034500000000001,-85.267399999999995,464.00,47065001200,Hamilton,Tennessee
6520016,Indian Path Community Hospital,36.550899999999999,-82.514300000000006,117.00,47163042100,Sullivan,Tennessee
6520018,Baptist Memorial Hospital-Collierville,35.049399999999999,-89.714299999999994,51.00,47157021530,Shelby,Tennessee
6520019,CHI Memorial,35.0413,-85.260400000000004,423.00,47065001200,Hamilton,Tennessee
6520020,Tennessee Valley Healthcare System,36.1417,-86.803700000000006,437.00,47037016500,Davidson,Tennessee
6520021,Select Specialty Hospital-Nashville,36.152700000000003,-86.8005,70.00,47037019500,Davidson,Tennessee
6520022,Baptist Memorial Hospital for Women,35.127899999999997,-89.855199999999996,140.00,47157021311,Shelby,Tennessee
6520023,Johnson County Community Hospital,36.453400000000002,-81.797700000000006,2.00,47091956300,Johnson,Tennessee
6520028,TriStar StoneCrest Medical Center,35.975099999999998,-86.565600000000003,101.00,47149040306,Rutherford,Tennessee
6520029,Saint Francis Hospital-Bartlett,35.207000000000001,-89.8005,156.00,47157020632,Shelby,Tennessee
6520030,Western Mental Health Institute,35.276400000000002,-89.027900000000002,150.00,47069950300,Hardeman,Tennessee
6520031,West Tennessee Rehabilitation Hospital Cane Creek,36.331299999999999,-88.869699999999995,40.00,47183968203,Weakley,Tennessee
6520032,Saint Thomas Hospital for Spinal Surgery,36.155099999999997,-86.8035,23.00,47037014400,Davidson,Tennessee
6520034,Select Specialty Hospital-North Knoxville,36.052599999999998,-83.997500000000002,33.00,47093006206,Knox,Tennessee
6520035,West Tennessee Healthcare Bolivar Hospital,35.266800000000003,-88.999700000000004,12.00,47069950300,Hardeman,Tennessee
6520037,Encompass Health Rehabilitation Hospital of North Memphis,35.237099999999998,-89.892099999999999,50.00,47157020532,Shelby,Tennessee
6520039,Select Specialty Hospital-Memphis,35.098100000000002,-89.864599999999996,39.00,47157021320,Shelby,Tennessee
6520040,Bristol Regional Medical Center,36.585700000000003,-82.256699999999995,296.00,47163042500,Sullivan,Tennessee
6520041,Select Specialty Hospital-Tri Cities,36.585700000000003,-82.256699999999995,33.00,47163042500,Sullivan,Tennessee
6520042,Hancock County Hospital,36.5334,-83.215199999999996,10.00,47067960600,Hancock,Tennessee
6520043,TriStar Summit Medical Center,36.176400000000001,-86.608099999999993,200.00,47037015623,Davidson,Tennessee
6520044,Curahealth Nashville,36.182499999999997,-86.847899999999996,60.00,47037012802,Davidson,Tennessee
6520045,Baptist Memorial Restorative Care Hospital,35.128700000000002,-89.858599999999996,30.00,47157021311,Shelby,Tennessee
6520046,Tennova Healthcare - Cleveland,35.177500000000002,-84.869399999999999,183.00,47011010600,Bradley,Tennessee
6520065,Erlanger Medical Center,35.048999999999999,-85.290599999999998,690.00,47065000400,Hamilton,Tennessee
6520066,West Tennessee Healthcare Camden Hospital,36.055100000000003,-88.108099999999993,8.00,47005963300,Benton,Tennessee
6520067,Riverview Regional Medical Center,36.263399999999997,-85.950100000000006,35.00,47159975100,Smith,Tennessee
6520069,Saint Thomas Hickman Hospital,35.779400000000003,-87.459100000000007,65.00,47081950301,Hickman,Tennessee
6520095,Kindred Hospital-Chattanooga,35.047800000000002,-85.307699999999997,39.00,47065003100,Hamilton,Tennessee
6520107,Moccasin Bend Mental Health Institute,35.026899999999998,-85.335499999999996,165.00,47065010901,Hamilton,Tennessee
6520139,Siskin Hospital for Physical Rehabilitation,35.0503,-85.291700000000006,195.00,47065000400,Hamilton,Tennessee
6520169,Rolling Hills Hospital,35.914299999999997,-86.8155,130.00,47187051001,Williamson,Tennessee
6520175,Tennova Healthcare-Clarksville,36.582000000000001,-87.270499999999998,172.00,47125101903,Montgomery,Tennessee
6520209,Maury Regional Hospital,35.606999999999999,-87.066500000000005,208.00,47119010801,Maury,Tennessee
6520212,Cookeville Regional Medical Center,36.171199999999999,-85.509399999999999,243.00,47141000800,Putnam,Tennessee
6520214,Baptist Memorial Hospital-Tipton,35.535899999999998,-89.678200000000004,50.00,47167040601,Tipton,Tennessee
6520215,Cumberland Medical Center,35.9392,-85.018600000000006,85.00,47035970501,Cumberland,Tennessee
6520225,Rhea Medical Center,35.530700000000003,-84.981899999999996,25.00,47143975200,Rhea,Tennessee
6520230,TriStar Horizon Medical Center,36.073399999999999,-87.375699999999995,130.00,47043060501,Dickson,Tennessee
6520253,Sycamore Shoals Hospital,36.3461,-82.249899999999997,74.00,47019070200,Carter,Tennessee
6520254,West Tennessee Healthcare Dyersburg Hospital,36.048000000000002,-89.379900000000006,115.00,47045964300,Dyer,Tennessee
6520270,Unicoi County Memorial Hospital,36.133400000000002,-82.412700000000001,50.00,47171080400,Unicoi,Tennessee
6520280,Lincoln County Health System,35.1496,-86.555400000000006,313.00,47103975400,Lincoln,Tennessee
6520294,Williamson Medical Center,35.915999999999997,-86.817999999999998,185.00,47187051001,Williamson,Tennessee
6520297,Sumner Regional Medical Center,36.390799999999999,-86.432500000000005,110.00,47165020700,Sumner,Tennessee
6520340,Greeneville Community Hospital West,36.151400000000002,-82.846000000000004,15.00,47059090500,Greene,Tennessee
6520350,Roane Medical Center,35.888399999999997,-84.555999999999997,52.00,47145030600,Roane,Tennessee
6520353,Trousdale Medical Center,36.387799999999999,-86.168199999999999,25.00,47169090200,Trousdale,Tennessee
6520405,Pathways of Tennessee,35.636800000000001,-88.833600000000004,25.00,47113000300,Madison,Tennessee
6520421,Tennova Healthcare-Jefferson Memorial Hospital,36.106499999999997,-83.519099999999995,58.00,47089070600,Jefferson,Tennessee
6520445,Jellico Community Hospital,36.576000000000001,-84.128,47.00,47013950200,Campbell,Tennessee
6520447,Unity Psychiatric Care-Clarksville,36.5762,-87.273099999999999,26.00,47125101903,Montgomery,Tennessee
6520456,TrustPoint Hospital,35.863900000000001,-86.430300000000003,155.00,47149040901,Rutherford,Tennessee
6520466,Johnson City Medical Center,36.307699999999997,-82.384200000000007,585.00,47179062000,Washington,Tennessee
6520470,Holston Valley Medical Center,36.554000000000002,-82.5548,336.00,47163040600,Sullivan,Tennessee
6520471,Baptist Memorial Rehabilitation Hospital,35.1145,-89.799800000000005,49.00,47157021351,Shelby,Tennessee
6520481,Crestwyn Behavioral Health,35.0443,-89.753600000000006,80.00,47157021520,Shelby,Tennessee
6520482,Encompass Health Rehabilitation Hospital of Franklin,35.9191,-86.819299999999998,40.00,47187051001,Williamson,Tennessee
6520485,Franklin Woods Community Hospital,36.336100000000002,-82.402199999999993,102.00,47179060400,Washington,Tennessee
6520506,East Tennessee Children's Hospital,35.956099999999999,-83.937899999999999,152.00,47093006900,Knox,Tennessee
6520510,Fort Sanders Regional Medical Center,35.957500000000003,-83.936599999999999,389.00,47093006900,Knox,Tennessee
6520530,Parkwest Medical Center,35.917200000000001,-84.100700000000003,417.00,47093004611,Knox,Tennessee
6520575,University of Tennessee Medical Center,35.934699999999999,-83.9482,685.00,47093003500,Knox,Tennessee
6520576,Macon Community Hospital,36.519199999999998,-86.024799999999999,25.00,47111970300,Macon,Tennessee
6520580,Tennova Healthcare-LaFollette Medical Center,36.3889,-84.111800000000002,164.00,47013950700,Campbell,Tennessee
6520590,Southern Tennessee Regional Health System-Lawrenceburg,35.219000000000001,-87.338700000000003,80.00,47099960402,Lawrence,Tennessee
6520625,Marshall Medical Center,35.463999999999999,-86.785700000000006,12.00,47117955200,Marshall,Tennessee
6520647,Henderson County Community Hospital,35.655299999999997,-88.398600000000002,45.00,47077975300,Henderson,Tennessee
6520648,Livingston Regional Hospital,36.384700000000002,-85.328400000000002,82.00,47133950301,Overton,Tennessee
6520649,Perry Community Hospital,35.592199999999998,-87.863900000000001,53.00,47135930200,Perry,Tennessee
6520650,Fort Loudoun Medical Center,35.825000000000003,-84.269999999999996,30.00,47105060301,Loudon,Tennessee
6520665,Unity Medical Center,35.468699999999998,-86.084000000000003,36.00,47031970500,Coffee,Tennessee
6520668,West Tennessee Healthcare Volunteer Hospital,36.334699999999998,-88.868600000000001,38.00,47183968202,Weakley,Tennessee
6520670,Blount Memorial Hospital,35.756500000000003,-83.958699999999993,275.00,47009010700,Blount,Tennessee
6520681,Baptist Memorial Hospital - Memphis,35.128700000000002,-89.858599999999996,584.00,47157021311,Shelby,Tennessee
6520690,Lakeside Behavioral Health System,35.206899999999997,-89.770499999999998,345.00,47157020832,Shelby,Tennessee
6520695,Regional One Health,35.142600000000002,-90.031899999999993,382.00,47157003800,Shelby,Tennessee
6520745,TriStar Hendersonville Medical Center,36.325000000000003,-86.621600000000001,125.00,47165021105,Sumner,Tennessee
6520770,Memphis Veterans Affairs Medical Center,35.143700000000003,-90.025899999999993,251.00,47157003800,Shelby,Tennessee
6520785,Methodist Healthcare Memphis Hospitals,35.136800000000001,-90.019400000000005,1362.00,47157003600,Shelby,Tennessee
6520805,Delta Specialty Hospital,35.0672,-89.932199999999995,167.00,47157010500,Shelby,Tennessee
6520812,Saint Francis Hospital,35.098100000000002,-89.864599999999996,415.00,47157021320,Shelby,Tennessee
6520815,St. Jude Children's Research Hospital,35.1556,-90.045199999999994,69.00,47157011300,Shelby,Tennessee
6520830,Memphis Mental Health Institute,35.141500000000001,-90.030600000000007,55.00,47157003800,Shelby,Tennessee
6520885,West Tennessee Healthcare Milan Hospital,35.9133,-88.753500000000003,28.00,47053966500,Gibson,Tennessee
6520895,Morristown-Hamblen Healthcare System,36.213099999999997,-83.305599999999998,115.00,47063100400,Hamblen,Tennessee
6520910,James H. Quillen Veterans Affairs Medical Center,36.311199999999999,-82.373099999999994,98.00,47179062000,Washington,Tennessee
6520920,Saint Thomas Rutherford Hospital,35.860900000000001,-86.4251,286.00,47149040901,Rutherford,Tennessee
6520940,Middle Tennessee Mental Health Institute,36.164000000000001,-86.647300000000001,207.00,47037015501,Davidson,Tennessee
6521010,Nashville General Hospital,36.166800000000002,-86.807100000000005,114.00,47037014200,Davidson,Tennessee
6521020,TriStar Skyline Medical Center,36.240900000000003,-86.757199999999997,579.00,47037010903,Davidson,Tennessee
6521035,TriStar Southern Hills Medical Center,36.0764,-86.721500000000006,87.00,47037019004,Davidson,Tennessee
6521040,Saint Thomas West Hospital,36.129300000000001,-86.844499999999996,395.00,47037016700,Davidson,Tennessee
6521060,Vanderbilt University Medical Center,36.141300000000001,-86.8018,1058.00,47037016500,Davidson,Tennessee
6521072,Tennova Newport Medical Center,35.964399999999998,-83.182100000000005,47.00,47029920600,Cocke,Tennessee
6521080,Methodist Medical Center of Oak Ridge,36.024299999999997,-84.245500000000007,210.00,47001020400,Anderson,Tennessee
6521084,Ridgeview Psychiatric Hospital and Center,36.0259,-84.242999999999995,20.00,47001020400,Anderson,Tennessee
6521095,Henry County Medical Center,36.296500000000002,-88.310599999999994,202.00,47079969500,Henry,Tennessee
6521116,Erlanger Bledsoe Hospital,35.604300000000002,-85.1935,25.00,47007953100,Bledsoe,Tennessee
6521135,Southern Tennessee Regional Health System-Pulaski,35.192,-87.006100000000004,38.00,47055920400,Giles,Tennessee
6521158,Hawkins County Memorial Hospital,36.399900000000002,-83.014399999999995,16.00,47073050301,Hawkins,Tennessee
6521165,Hardin Medical Center,35.228499999999997,-88.2303,122.00,47071920300,Hardin,Tennessee
6521170,LeConte Medical Center,35.855800000000002,-83.535700000000006,128.00,47155080802,Sevier,Tennessee
6521185,Southern Tennessee Regional Health System-Winchester,35.176299999999998,-86.089799999999997,190.00,47051960500,Franklin,Tennessee
6521195,Tennova Healthcare-Shelbyville,35.563600000000001,-86.448800000000006,49.00,47003950100,Bedford,Tennessee
6521207,Saint Thomas Highlands Hospital,35.948900000000002,-85.478300000000004,60.00,47185935300,White,Tennessee
6521210,Northcrest Medical Center,36.478200000000001,-86.887100000000004,72.00,47147080402,Robertson,Tennessee
6521220,Sweetwater Hospital,35.600200000000001,-84.464299999999994,59.00,47123925200,Monroe,Tennessee
6521222,Claiborne Medical Center,36.4529,-83.572500000000005,105.00,47025970700,Claiborne,Tennessee
6521224,Tennova Healthcare-Harton,35.382199999999997,-86.2316,135.00,47031971000,Coffee,Tennessee
6521225,Baptist Memorial Hospital-Union City,36.414400000000001,-89.044700000000006,63.00,47131965700,Obion,Tennessee
6521230,Three Rivers Hospital,36.078499999999998,-87.795000000000002,25.00,47085130300,Humphreys,Tennessee
6521234,Wayne Medical Center,35.325200000000002,-87.756399999999999,25.00,47181950200,Wayne,Tennessee
6521260,Saint Thomas Stones River Hospital,35.832599999999999,-86.072100000000006,60.00,47015960100,Cannon,Tennessee
6524010,Jackson-Madison County General Hospital,35.636699999999998,-88.831999999999994,632.00,47113000300,Madison,Tennessee
6529045,Encompass Health Rehabilitation Hospital of Chattanooga,35.032499999999999,-85.266400000000004,50.00,47065001300,Hamilton,Tennessee
6529061,Houston County Community Hospital,36.3202,-87.689599999999999,15.00,47083120200,Houston,Tennessee
6529075,Baptist Memorial Hospital-Carroll County,36.0229,-88.412000000000006,35.00,47017962100,Carroll,Tennessee
6529160,Saint Thomas DeKalb Hospital,35.961500000000001,-85.829499999999996,56.00,47041920200,DeKalb,Tennessee
6529206,Unity Psychiatric Care-Columbia,35.605800000000002,-87.058899999999994,16.00,47119010700,Maury,Tennessee
6529207,Unity Psychiatric Care-Martin,36.336799999999997,-88.871700000000004,16.00,47183968202,Weakley,Tennessee
6529208,Regional One Health Extended Care Hospital,35.1417,-90.031400000000005,21.00,47157003800,Shelby,Tennessee
6529209,Big South Fork Medical Center,36.504399999999997,-84.515900000000002,25.00,47151975100,Scott,Tennessee
6530002,Marshall Medical Center North,34.364800000000002,-86.421599999999998,76.00,01095030500,Marshall,Alabama
6530005,Encompass Rehabilitation Hospital of North Alabama,34.719200000000001,-86.579999999999998,70.00,01089001901,Madison,Alabama
6530006,Mobile Infirmary Medical Center,30.696400000000001,-88.079800000000006,554.00,01097002502,Mobile,Alabama
6530008,Central Alabama Veterans Health Care System,32.376899999999999,-86.243899999999996,313.00,01101002700,Montgomery,Alabama
6530009,Noland Hospital Montgomery,32.367100000000001,-86.285300000000007,65.00,01101000600,Montgomery,Alabama
6530010,Shelby Baptist Medical Center,33.252400000000002,-86.813000000000002,231.00,01117030319,Shelby,Alabama
6530011,Decatur Morgan Hospital,34.590400000000002,-86.972399999999993,110.00,01103000100,Morgan,Alabama
6530012,Encompass Health Rehabilitation Hospital of Dothan,31.2179,-85.365700000000004,51.00,01069041000,Houston,Alabama
6530013,Noland Hospital Birmingham,33.596499999999999,-86.667699999999996,45.00,01073005903,Jefferson,Alabama
6530014,Select Specialty Hospital-Birmingham,33.463500000000003,-86.776700000000005,38.00,01073012905,Jefferson,Alabama
6530015,Laurel Oaks Behavioral Health Center,31.203700000000001,-85.384600000000006,38.00,01069041000,Houston,Alabama
6530016,Encompass Health Rehabilitation Hospital of Gadsden,34.007100000000001,-85.968699999999998,44.00,01055011200,Etowah,Alabama
6530017,Taylor Hardin Secure Medical Facility,33.221899999999998,-87.543000000000006,114.00,01125011200,Tuscaloosa,Alabama
6530019,Regional Rehabilitation Hospital,32.498699999999999,-85.046300000000002,58.00,01113030402,Russell,Alabama
6530020,Mary S Harper Geriatric Psychiatry Center,33.208100000000002,-87.537700000000001,96.00,01125011200,Tuscaloosa,Alabama
6530021,Noland Hospital Anniston,33.656399999999998,-85.822800000000001,38.00,01015000800,Calhoun,Alabama
6530022,Noland Hospital Dothan,31.215900000000001,-85.363,38.00,01069041000,Houston,Alabama
6530023,Noland Hospital Tuscaloosa,33.209099999999999,-87.548199999999994,32.00,01125011200,Tuscaloosa,Alabama
6530025,Jack Hughston Memorial Hospital,32.508099999999999,-85.008700000000005,35.00,01113030401,Russell,Alabama
6530030,Russell Medical,32.931600000000003,-85.968800000000002,69.00,01123962100,Tallapoosa,Alabama
6530050,Andalusia Health,31.296299999999999,-86.494799999999998,78.00,01039961800,Covington,Alabama
6530070,RMC Anniston,33.656399999999998,-85.822800000000001,118.00,01015000800,Calhoun,Alabama
6530073,RMC-Stringfellow Memorial Hospital,33.667700000000004,-85.825000000000003,88.00,01015000200,Calhoun,Alabama
6530080,Clay County Hospital,33.2774,-85.822100000000006,129.00,01027959000,Clay,Alabama
6530090,Athens-Limestone Hospital,34.804299999999998,-86.979200000000006,71.00,01083020600,Limestone,Alabama
6530100,Atmore Community Hospital,31.0166,-87.476299999999995,33.00,01053970700,Escambia,Alabama
6530116,North Baldwin Infirmary,30.9039,-87.784999999999997,50.00,01003010500,Baldwin,Alabama
6530142,Medical West,33.372300000000003,-86.990600000000001,231.00,01073014105,Jefferson,Alabama
6530160,Princeton Baptist Medical Center,33.498399999999997,-86.846999999999994,315.00,01073004000,Jefferson,Alabama
6530161,Grandview Medical Center,33.432899999999997,-86.718800000000002,414.00,01073012910,Jefferson,Alabama
6530170,Children's of Alabama,33.504100000000001,-86.805099999999996,341.00,01073004500,Jefferson,Alabama
6530175,Brookwood Baptist Medical Center,33.463500000000003,-86.776700000000005,607.00,01073012905,Jefferson,Alabama
6530180,St. Vincent's East,33.596499999999999,-86.667699999999996,362.00,01073005903,Jefferson,Alabama
6530200,Hill Crest Behavioral Health Services,33.548699999999997,-86.730199999999996,80.00,01073002200,Jefferson,Alabama
6530210,Beacon Children's Hospital,31.694299999999998,-86.264399999999995,28.00,01041963700,Crenshaw,Alabama
6530211,Baypointe Behavioral Health,30.6248,-88.178600000000003,60.00,01097003709,Mobile,Alabama
6530212,Infirmary Long Term Acute Care Hospital,30.696400000000001,-88.079800000000006,38.00,01097002502,Mobile,Alabama
6530215,Noland Hospital Shelby,33.252400000000002,-86.813000000000002,52.00,01117030319,Shelby,Alabama
6530220,Encompass Health Lakeshore Rehabilitation Hospital,33.469000000000001,-86.7881,100.00,01073010704,Jefferson,Alabama
6530260,St. Vincent's Birmingham,33.507199999999997,-86.788899999999998,409.00,01073004701,Jefferson,Alabama
6530304,University of Alabama Hospital,33.505899999999997,-86.802099999999996,1188.00,01073004500,Jefferson,Alabama
6530305,Birmingham Veterans Affairs Medical Center,33.504100000000001,-86.801599999999993,139.00,01073004500,Jefferson,Alabama
6530308,Marshall Medical Center South,34.204799999999999,-86.101900000000001,107.00,01049960700,DeKalb,Alabama
6530310,D. W. McMillan Memorial Hospital,31.125599999999999,-87.072599999999994,49.00,01053970100,Escambia,Alabama
6530313,Floyd Cherokee Medical Center,34.162799999999997,-85.651399999999995,45.00,01019956000,Cherokee,Alabama
6530314,Bibb Medical Center,32.9512,-87.147999999999996,166.00,01007010004,Bibb,Alabama
6530317,Washington County Hospital,31.459399999999999,-88.235100000000003,20.00,01129044000,Washington,Alabama
6530320,Cullman Regional Medical Center,34.198599999999999,-86.805800000000005,145.00,01043964900,Cullman,Alabama
6530323,Lake Martin Community Hospital,32.820099999999996,-85.741600000000005,25.00,01123962400,Tallapoosa,Alabama
6530345,Bryan W. Whitfield Memorial Hospital,32.497599999999998,-87.847899999999996,47.00,01091973400,Marengo,Alabama
6530350,Flowers Hospital,31.2379,-85.456800000000001,147.00,01069040202,Houston,Alabama
6530373,Southeast Alabama Medical Center,31.215900000000001,-85.363,387.00,01069041000,Houston,Alabama
6530380,Community Hospital,32.534100000000002,-85.912400000000005,47.00,01051030400,Elmore,Alabama
6530390,Medical Center Enterprise,31.3186,-85.855099999999993,99.00,01031010900,Coffee,Alabama
6530394,Choctaw General Hospital,32.091700000000003,-88.208299999999994,25.00,01023956800,Choctaw,Alabama
6530396,EastPointe Hospital,30.6355,-87.897000000000006,50.00,01003010705,Baldwin,Alabama
6530400,Medical Center Barbour,31.8887,-85.156199999999998,47.00,01005950700,Barbour,Alabama
6530401,Greene County Health System,32.842199999999998,-87.890100000000004,92.00,01063060100,Greene,Alabama
6530404,Unity Psychiatric Care-Huntsville,34.753300000000003,-86.661299999999997,20.00,01089010622,Madison,Alabama
6530415,Evergreen Medical Center,31.431000000000001,-86.940799999999996,44.00,01035960600,Conecuh,Alabama
6530417,Thomas Hospital,30.518999999999998,-87.888300000000001,136.00,01003011202,Baldwin,Alabama
6530425,Fayette Medical Center,33.707999999999998,-87.824200000000005,167.00,01057020200,Fayette,Alabama
6530431,St. Vincent's Chilton Hospital,32.880099999999999,-86.622399999999999,36.00,01021060102,Chilton,Alabama
6530440,North Alabama Medical Center,34.7941,-87.682699999999997,321.00,01077010200,Lauderdale,Alabama
6530446,South Baldwin Regional Medical Center,30.426100000000002,-87.684299999999993,112.00,01003011501,Baldwin,Alabama
6530455,DeKalb Regional Medical Center,34.442,-85.754999999999995,115.00,01049961100,DeKalb,Alabama
6530460,Gadsden Regional Medical Center,34.0075,-85.967600000000004,279.00,01055011200,Etowah,Alabama
6530465,Mountain View Hospital,34.072400000000002,-86.0197,68.00,01055000400,Etowah,Alabama
6530470,Riverview Regional Medical Center,34.004300000000001,-86.003399999999999,280.00,01055001200,Etowah,Alabama
6530475,Wiregrass Medical Center,31.0488,-85.891000000000005,147.00,01061050300,Geneva,Alabama
6530480,Hale County Hospital,32.695500000000003,-87.587000000000003,20.00,01065040400,Hale,Alabama
6530500,Regional Medical Center of Central Alabama,31.8291,-86.646299999999997,61.00,01013952900,Butler,Alabama
6530505,Grove Hill Memorial Hospital,31.695,-87.777299999999997,34.00,01025957800,Clarke,Alabama
6530510,Huntsville Hospital,34.720999999999997,-86.581800000000001,949.00,01089003100,Madison,Alabama
6530516,North Mississippi Medical Center-Hamilton,34.126800000000003,-87.991500000000002,15.00,01093964400,Marion,Alabama
6530521,Crestwood Medical Center,34.693600000000004,-86.572199999999995,180.00,01089002600,Madison,Alabama
6530530,Jackson Medical Center,31.531199999999998,-87.895099999999999,26.00,01025957901,Clarke,Alabama
6530540,Walker Baptist Medical Center,33.841000000000001,-87.236500000000007,178.00,01127020300,Walker,Alabama
6530585,Crenshaw Community Hospital,31.6934,-86.265100000000004,65.00,01041963700,Crenshaw,Alabama
6530597,USA Health Children's & Women's Hospital,30.697500000000002,-88.078000000000003,172.00,01097000901,Mobile,Alabama
6530600,USA Health University Hospital,30.7073,-88.098600000000005,203.00,01097000800,Mobile,Alabama
6530630,Providence Hospital,30.6783,-88.198599999999999,305.00,01097003703,Mobile,Alabama
6530640,Springhill Memorial Hospital,30.685199999999998,-88.131699999999995,219.00,01097003301,Mobile,Alabama
6530650,Monroe County Hospital,31.494900000000001,-87.320599999999999,44.00,01099075900,Monroe,Alabama
6530695,Jackson Hospital and Clinic,32.367100000000001,-86.285300000000007,262.00,01101000600,Montgomery,Alabama
6530705,Baptist Medical Center South,32.326900000000002,-86.271000000000001,371.00,01101003200,Montgomery,Alabama
6530755,St. Vincent's Blount,33.933300000000003,-86.495000000000005,25.00,01009050101,Blount,Alabama
6530760,East Alabama Medical Center,32.6402,-85.403800000000004,532.00,01081041300,Lee,Alabama
6530765,Mizell Memorial Hospital,31.222100000000001,-86.172499999999999,59.00,01031010600,Coffee,Alabama
6530769,Dale Medical Center,31.4513,-85.632099999999994,69.00,01045020500,Dale,Alabama
6530772,St. Vincent's St. Clair,33.604399999999998,-86.301699999999997,40.00,01115040201,St. Clair,Alabama
6530780,Prattville Baptist Hospital,32.464199999999998,-86.451800000000006,55.00,01001020300,Autauga,Alabama
6530800,Baptist Medical Center East,32.374499999999998,-86.170699999999997,150.00,01101005407,Montgomery,Alabama
6530805,Encompass Health Rehabilitation Hospital of Montgomery,32.319099999999999,-86.280600000000007,70.00,01101003200,Montgomery,Alabama
6530810,Russellville Hospital,34.510800000000003,-87.718299999999999,92.00,01059973000,Franklin,Alabama
6530823,Highlands Medical Center,34.661700000000003,-86.046599999999998,92.00,01071950800,Jackson,Alabama
6530860,Vaughan Regional Medical Center,32.429400000000001,-87.055999999999997,149.00,01047956800,Dallas,Alabama
6530880,Helen Keller Hospital,34.746499999999997,-87.698899999999995,143.00,01033020300,Colbert,Alabama
6530900,Coosa Valley Medical Center,33.164400000000001,-86.255200000000002,101.00,01121011800,Talladega,Alabama
653090A,Shoals Hospital,34.747,-87.676100000000005,137.00,01033020704,Colbert,Alabama
6530910,Citizens Baptist Medical Center,33.439799999999998,-86.092100000000002,72.00,01121010900,Talladega,Alabama
6530950,Bryce Hospital,33.208100000000002,-87.537700000000001,820.00,01125011200,Tuscaloosa,Alabama
653095A,Troy Regional Medical Center,31.781099999999999,-85.944900000000004,43.00,01109189100,Pike,Alabama
6530960,DCH Regional Medical Center,33.204799999999999,-87.526700000000005,687.00,01125011200,Tuscaloosa,Alabama
6530990,Tuscaloosa Veterans Affairs Medical Center,33.191400000000002,-87.486599999999996,315.00,01125012303,Tuscaloosa,Alabama
6531013,Bullock County Hospital,32.146099999999997,-85.712999999999994,54.00,01011952200,Bullock,Alabama
6531017,Elmore Community Hospital,32.552399999999999,-86.186400000000006,49.00,01051030600,Elmore,Alabama
6531025,Bradford Health Services at Warrior Lodge,33.825000000000003,-86.872200000000007,100.00,01073011400,Jefferson,Alabama
6531027,Northwest Medical Center,33.929600000000001,-87.8249,56.00,01093964700,Marion,Alabama
6531040,Hill Hospital of Sumter County,32.491700000000002,-88.296000000000006,33.00,01119011500,Sumter,Alabama
6531780,Bradford Health Services at Huntsville,34.724299999999999,-86.7834,84.00,01089011014,Madison,Alabama
6534001,Lakeland Community Hospital,34.227699999999999,-87.621399999999994,59.00,01133965700,Winston,Alabama
6539110,Lawrence Medical Center,34.482900000000001,-87.286000000000001,43.00,01079979400,Lawrence,Alabama
6539120,Red Bay Hospital,34.457500000000003,-88.147800000000004,22.00,01059973400,Franklin,Alabama
6539160,Tanner Medical Center/East Alabama,33.310699999999997,-85.484999999999999,15.00,01111000300,Randolph,Alabama
6539162,Encompass Health Rehabilitation Hospital of Shelby County,33.283299999999997,-86.7988,34.00,01117030345,Shelby,Alabama
6540001,Baptist Memorial Hospital-Golden Triangle,33.525700000000001,-88.427400000000006,236.00,28087000900,Lowndes,Mississippi
6540002,Select Specialty Hospital - Belhaven,32.315100000000001,-90.179500000000004,25.00,28049001600,Hinds,Mississippi
6540004,University of Mississippi Medical Center,32.331699999999998,-90.169799999999995,697.00,28049001300,Hinds,Mississippi
6540005,Stone County Hospital,30.845500000000001,-89.116500000000002,25.00,28131020201,Stone,Mississippi
6540006,Mississippi State Hospital,32.241900000000001,-90.070700000000002,349.00,28121020500,Rankin,Mississippi
6540007,Mississippi Baptist Medical Center,32.315100000000001,-90.179500000000004,423.00,28049001600,Hinds,Mississippi
6540009,North Mississippi State Hospital,34.239400000000003,-88.674300000000002,50.00,28081950700,Lee,Mississippi
6540010,Monroe Regional Hospital,33.820099999999996,-88.539900000000003,35.00,28095950800,Monroe,Mississippi
6540011,Specialty Hospital of Meridian,32.3705,-88.697500000000005,49.00,28075010700,Lauderdale,Mississippi
6540013,South Mississippi State Hospital,31.166499999999999,-89.425299999999993,50.00,28073020400,Lamar,Mississippi
6540014,Scott Regional Hospital,32.330599999999997,-89.665700000000001,25.00,28123020300,Scott,Mississippi
6540015,Choctaw Regional Medical Center,33.316800000000001,-89.184799999999996,88.00,28019950300,Choctaw,Mississippi
6540016,Brentwood Behavioral HealthCare of Mississippi,32.331499999999998,-90.100499999999997,105.00,28121020302,Rankin,Mississippi
6540019,Merit Health River Region,32.377299999999998,-90.827399999999997,361.00,28149950100,Warren,Mississippi
6540020,North Mississippi Medical Center Gilmore-Amory,33.975900000000003,-88.476900000000001,95.00,28095950400,Monroe,Mississippi
6540021,Singing River Health System,30.374400000000001,-88.532899999999998,361.00,28059041900,Jackson,Mississippi
6540022,Regency Hospital of Meridian,32.368000000000002,-88.698999999999998,40.00,28075010700,Lauderdale,Mississippi
6540024,KPC Promise Hospital of Vicksburg,32.3185,-90.882300000000001,27.00,28149950700,Warren,Mississippi
6540027,Select Specialty Hospital-Jackson,32.389699999999998,-90.143799999999999,53.00,28049010102,Hinds,Mississippi
6540029,Select Specialty Hospital-Gulfport,30.369900000000001,-89.115899999999996,61.00,28047002600,Harrison,Mississippi
6540030,Greene County Hospital,31.154699999999998,-88.560299999999998,7.00,28041950200,Greene,Mississippi
6540032,Delta Regional Medical Center,33.411000000000001,-91.034800000000004,218.00,28151001200,Washington,Mississippi
6540036,Jasper General Hospital,31.981400000000001,-89.292699999999996,126.00,28061950200,Jasper,Mississippi
6540037,Hancock Medical Center,30.3172,-89.354699999999994,102.00,28045030300,Hancock,Mississippi
6540049,Merit Health Biloxi,30.395900000000001,-88.889600000000002,101.00,28047003600,Harrison,Mississippi
6540060,U. S. Air Force Medical Center Keesler,30.412299999999998,-88.912700000000001,56.00,28047000900,Harrison,Mississippi
6540070,Veterans Affairs Gulf Coast Veterans Health Care System,30.414899999999999,-88.944999999999993,392.00,28047003700,Harrison,Mississippi
6540080,Baptist Memorial Hospital-Booneville,34.657600000000002,-88.565600000000003,63.00,28117950300,Prentiss,Mississippi
6540100,Merit Health Rankin,32.286799999999999,-90.034899999999993,134.00,28121020208,Rankin,Mississippi
6540110,King's Daughters Medical Center,31.588999999999999,-90.458100000000002,79.00,28085950500,Lincoln,Mississippi
6540116,Baptist Memorial Hospital - Calhoun,33.870899999999999,-89.318399999999997,145.00,28013950500,Calhoun,Mississippi
6540120,Merit Health Madison,32.581299999999999,-90.082999999999998,43.00,28089030400,Madison,Mississippi
6540123,Baptist Medical Center Leake,32.738700000000001,-89.515600000000006,25.00,28079040600,Leake,Mississippi
6540130,Field Memorial Community Hospital,31.082100000000001,-91.058800000000005,16.00,28005950300,Amite,Mississippi
6540135,Tallahatchie General Hospital,34.0045,-90.058199999999999,116.00,28135950200,Tallahatchie,Mississippi
6540156,Northwest Mississippi Medical Center,34.197099999999999,-90.5518,181.00,28027950700,Coahoma,Mississippi
6540161,Bolivar Medical Center,33.749000000000002,-90.708200000000005,129.00,28011950701,Bolivar,Mississippi
6540165,Covington County Hospital,31.638300000000001,-89.554400000000001,95.00,28031950200,Covington,Mississippi
6540170,Marion General Hospital,31.255600000000001,-89.806399999999996,49.00,28091950400,Marion,Mississippi
6540206,Magnolia Regional Health Center,34.935600000000001,-88.560100000000006,200.00,28003950300,Alcorn,Mississippi
6540210,Merit Health Woman's Hospital,32.329500000000003,-90.101200000000006,60.00,28121020302,Rankin,Mississippi
6540215,South Central Regional Medical Center,31.685199999999998,-89.140799999999999,424.00,28067950600,Jones,Mississippi
6540235,Lackey Memorial Hospital,32.366,-89.470200000000006,55.00,28123020500,Scott,Mississippi
6540280,Greenwood Leflore Hospital,33.518300000000004,-90.198300000000003,208.00,28083950700,Leflore,Mississippi
6540285,Gulfport Behavioral Health System,30.4437,-89.116799999999998,89.00,28047003505,Harrison,Mississippi
6540290,University of Mississippi Medical Center Grenada,33.763300000000001,-89.818100000000001,58.00,28043950500,Grenada,Mississippi
6540295,Garden Park Medical Center,30.442,-89.091800000000006,68.00,28047003204,Harrison,Mississippi
6540300,Memorial Hospital at Gulfport,30.366700000000002,-89.115300000000005,281.00,28047002600,Harrison,Mississippi
6540315,Forrest General Hospital,31.3186,-89.329499999999996,545.00,28035000700,Forrest,Mississippi
6540320,Merit Health Wesley,31.325700000000001,-89.366699999999994,211.00,28073020302,Lamar,Mississippi
6540332,Copiah County Medical Center,31.874500000000001,-90.372799999999998,25.00,28029950500,Copiah,Mississippi
6540335,Alliance HealthCare System,34.787199999999999,-89.417100000000005,40.00,28093950402,Marshall,Mississippi
6540340,Trace Regional Hospital,33.896700000000003,-88.999200000000002,84.00,28017950300,Chickasaw,Mississippi
6540355,South Sunflower County Hospital,33.4572,-90.650099999999995,43.00,28133950401,Sunflower,Mississippi
6540359,North Mississippi Medical Center-Iuka,34.802,-88.208500000000001,48.00,28141950300,Tishomingo,Mississippi
6540365,Merit Health Central,32.287799999999997,-90.254199999999997,230.00,28049011001,Hinds,Mississippi
6540371,Methodist Rehabilitation Center,32.328299999999999,-90.1721,184.00,28049001300,Hinds,Mississippi
6540385,Merit Health River Oaks,32.325499999999998,-90.1053,118.00,28121020302,Rankin,Mississippi
6540390,St. Dominic-Jackson Memorial Hospital,32.3322,-90.1648,502.00,28049001300,Hinds,Mississippi
6540410,G.V. (Sonny) Montgomery Veterans Affairs Medical Center,32.328099999999999,-90.167299999999997,323.00,28049001300,Hinds,Mississippi
6540413,Allegiance Specialty Hospital of Greenville,33.403500000000001,-91.050799999999995,39.00,28151001000,Washington,Mississippi
6540416,Methodist Healthcare Olive Branch Hospital,34.922600000000003,-89.792100000000005,53.00,28033070722,DeSoto,Mississippi
6540420,Baptist Medical Center Attala,33.0657,-89.598399999999998,25.00,28007060600,Attala,Mississippi
6540422,Oceans Behavioral Hospital Biloxi,30.3916,-89.001300000000001,45.00,28047001400,Harrison,Mississippi
6540439,Encompass Health Rehabilitation Hospital of Gulfport,30.366700000000002,-89.115399999999994,33.00,28047002600,Harrison,Mississippi
6540450,University of Mississippi Medical Center Holmes County,33.1218,-90.012900000000002,25.00,28051950200,Holmes,Mississippi
6540455,Winston Medical Center,33.124600000000001,-89.033699999999996,144.00,28159950400,Winston,Mississippi
6540457,George Regional Hospital,30.921900000000001,-88.593800000000002,48.00,28039950200,George,Mississippi
6540460,Noxubee General Hospital,33.121499999999997,-88.560199999999995,85.00,28103950300,Noxubee,Mississippi
6540470,Magee General Hospital,31.871200000000002,-89.728899999999996,44.00,28127950500,Simpson,Mississippi
6540475,Beacham Memorial Hospital,31.146000000000001,-90.459500000000006,31.00,28113950600,Pike,Mississippi
6540501,Southwest Mississippi Regional Medical Center,31.251000000000001,-90.474400000000003,143.00,28113950400,Pike,Mississippi
6540505,Franklin County Memorial Hospital,31.473199999999999,-90.884399999999999,25.00,28037950100,Franklin,Mississippi
6540509,Simpson General Hospital,31.969100000000001,-89.886399999999995,35.00,28127950200,Simpson,Mississippi
6540510,Anderson Regional Health System,32.372500000000002,-88.700000000000003,260.00,28075000400,Lauderdale,Mississippi
6540515,Parkwood Behavioral Health System,34.961300000000001,-89.845699999999994,148.00,28033070821,DeSoto,Mississippi
6540530,East Mississippi State Hospital,32.376199999999997,-88.731899999999996,267.00,28075000800,Lauderdale,Mississippi
6540575,Anderson Regional Health System South,32.368000000000002,-88.698999999999998,69.00,28075010700,Lauderdale,Mississippi
6540580,Rush Foundation Hospital,32.3705,-88.697500000000005,182.00,28075010700,Lauderdale,Mississippi
6540590,Alliance Health Center,32.409599999999998,-88.677800000000005,154.00,28075001102,Lauderdale,Mississippi
6540598,Lawrence County Hospital,31.5669,-90.104699999999994,25.00,28077960200,Lawrence,Mississippi
6540607,Merit Health Natchez,31.527799999999999,-91.391400000000004,136.00,28001000900,Adams,Mississippi
6540657,Baptist Memorial Hospital-Union County,34.497500000000002,-89.027699999999996,101.00,28145950300,Union,Mississippi
6540693,Baptist Memorial Hospital-North Mississippi,34.348199999999999,-89.519900000000007,184.00,28071950202,Lafayette,Mississippi
6540710,Choctaw Health Center,32.757800000000003,-89.107799999999997,26.00,28099010500,Neshoba,Mississippi
6540730,Highland Community Hospital,30.552299999999999,-89.6648,49.00,28109950502,Pearl River,Mississippi
6540740,North Mississippi Medical Center-Pontotoc,34.242699999999999,-88.995999999999995,69.00,28115950300,Pontotoc,Mississippi
6540752,Jefferson Davis Community Hospital,31.594200000000001,-89.872600000000006,80.00,28065950100,Jefferson Davis,Mississippi
6540753,Claiborne County Medical Center,31.946300000000001,-90.984700000000004,22.00,28021950200,Claiborne,Mississippi
6540754,H. C. Watkins Memorial Hospital,32.036299999999997,-88.727999999999994,25.00,28023950400,Clarke,Mississippi
6540755,Tippah County Hospital,34.7395,-88.950599999999994,65.00,28139950300,Tippah,Mississippi
6540775,North Sunflower Medical Center,33.734200000000001,-90.545500000000004,95.00,28133950200,Sunflower,Mississippi
6540785,OCH Regional Medical Center,33.4758,-88.820999999999998,96.00,28105950300,Oktibbeha,Mississippi
6540790,North Oak Regional Medical Center,34.624699999999997,-89.956500000000005,41.00,28137950400,Tate,Mississippi
6540825,Walthall County General Hospital,31.120100000000001,-90.156599999999997,25.00,28147950200,Walthall,Mississippi
6540840,Laird Hospital,32.575600000000001,-89.1036,25.00,28101050200,Newton,Mississippi
6540891,Yalobusha General Hospital,34.131399999999999,-89.642300000000006,148.00,28161950200,Yalobusha,Mississippi
6540905,North Mississippi Medical Center-West Point,33.618600000000001,-88.662000000000006,49.00,28025950100,Clay,Mississippi
654090A,Wayne General Hospital,31.673400000000001,-88.634399999999999,49.00,28153950200,Wayne,Mississippi
6540920,Tyler Holmes Memorial Hospital,33.490000000000002,-89.737700000000004,25.00,28097950300,Montgomery,Mississippi
6540930,Baptist Medical Center Yazoo,32.859000000000002,-90.404300000000006,25.00,28163950300,Yazoo,Mississippi
6540950,Baptist Memorial Hospital-Desoto,34.971299999999999,-89.997600000000006,229.00,28033070522,DeSoto,Mississippi
6549001,Panola Medical Center,34.304600000000001,-89.916799999999995,106.00,28107950400,Panola,Mississippi
6549030,Jefferson County Hospital,31.704999999999998,-91.067899999999995,30.00,28063950200,Jefferson,Mississippi
6549040,North Mississippi Medical Center-Eupora,33.534199999999998,-89.265299999999996,74.00,28155950300,Webster,Mississippi
6549165,Neshoba County General Hospital,32.756999999999998,-89.106800000000007,208.00,28099010500,Neshoba,Mississippi
6549170,Pearl River County Hospital,30.856300000000001,-89.542400000000001,18.00,28109950300,Pearl River,Mississippi
6549175,Perry County General Hospital,31.346399999999999,-88.938699999999997,22.00,28111950101,Perry,Mississippi
6549180,Sharkey-Issaquena Community Hospital,32.904699999999998,-90.885000000000005,29.00,28125950200,Sharkey,Mississippi
6549241,John C. Stennis Memorial Hospital,32.7759,-88.654200000000003,25.00,28069030100,Kemper,Mississippi
6549242,Patients Choice Medical Center of Smith County,32,-89.519599999999997,20.00,28129950200,Smith,Mississippi
